[
  {
    "id": 1,
    "name": "Rohan Sharma",
    "age": 32,
    "riskLevel": "HIGH",
    "history": [
      {
        "city": "Mumbai",
        "latitude": 19.0760,
        "longitude": 72.8777,
        "arrivalTime": "2026-02-01T08:00:00",
        "departureTime": "2026-02-02T10:00:00"
      },
      {
        "city": "Pune",
        "latitude": 18.5204,
        "longitude": 73.8567,
        "arrivalTime": "2026-02-02T14:00:00",
        "departureTime": "2026-02-03T09:00:00"
      },
      {
        "city": "Delhi",
        "latitude": 28.7041,
        "longitude": 77.1025,
        "arrivalTime": "2026-02-03T18:00:00",
        "departureTime": "2026-02-05T08:00:00"
      },
      {
        "city": "Mumbai",
        "latitude": 19.0760,
        "longitude": 72.8777,
        "arrivalTime": "2026-02-05T20:00:00",
        "departureTime": "2026-02-06T09:00:00"
      }
    ]
  },
  {
    "id": 2,
    "name": "Imran Khan",
    "age": 40,
    "riskLevel": "MEDIUM",
    "history": [
      {
        "city": "Delhi",
        "latitude": 28.7041,
        "longitude": 77.1025,
        "arrivalTime": "2026-02-03T09:00:00",
        "departureTime": "2026-02-04T12:00:00"
      },
      {
        "city": "Jaipur",
        "latitude": 26.9124,
        "longitude": 75.7873,
        "arrivalTime": "2026-02-04T16:00:00",
        "departureTime": "2026-02-05T11:00:00"
      },
      {
        "city": "Mumbai",
        "latitude": 19.0760,
        "longitude": 72.8777,
        "arrivalTime": "2026-02-05T20:00:00",
        "departureTime": "2026-02-06T08:00:00"
      }
    ]
  },
  {
    "id": 3,
    "name": "Amit Verma",
    "age": 29,
    "riskLevel": "LOW",
    "history": [
      {
        "city": "Pune",
        "latitude": 18.5204,
        "longitude": 73.8567,
        "arrivalTime": "2026-02-01T07:00:00",
        "departureTime": "2026-02-01T18:00:00"
      },
      {
        "city": "Hyderabad",
        "latitude": 17.3850,
        "longitude": 78.4867,
        "arrivalTime": "2026-02-02T10:00:00",
        "departureTime": "2026-02-03T15:00:00"
      },
      {
        "city": "Delhi",
        "latitude": 28.7041,
        "longitude": 77.1025,
        "arrivalTime": "2026-02-04T08:00:00",
        "departureTime": "2026-02-05T12:00:00"
      }
    ]
  },
  {
    "id": 4,
    "name": "Vikram Singh",
    "age": 36,
    "riskLevel": "HIGH",
    "history": [
      {
        "city": "Chennai",
        "latitude": 13.0827,
        "longitude": 80.2707,
        "arrivalTime": "2026-02-01T06:00:00",
        "departureTime": "2026-02-02T09:00:00"
      },
      {
        "city": "Bangalore",
        "latitude": 12.9716,
        "longitude": 77.5946,
        "arrivalTime": "2026-02-02T13:00:00",
        "departureTime": "2026-02-03T10:00:00"
      },
      {
        "city": "Mumbai",
        "latitude": 19.0760,
        "longitude": 72.8777,
        "arrivalTime": "2026-02-04T09:00:00",
        "departureTime": "2026-02-05T14:00:00"
      }
    ]
  },
  {
    "id": 5,
    "name": "Sandeep Yadav",
    "age": 34,
    "riskLevel": "MEDIUM",
    "history": [
      {
        "city": "Delhi",
        "latitude": 28.7041,
        "longitude": 77.1025,
        "arrivalTime": "2026-02-01T09:00:00",
        "departureTime": "2026-02-02T10:00:00"
      },
      {
        "city": "Lucknow",
        "latitude": 26.8467,
        "longitude": 80.9462,
        "arrivalTime": "2026-02-02T15:00:00",
        "departureTime": "2026-02-03T11:00:00"
      },
      {
        "city": "Pune",
        "latitude": 18.5204,
        "longitude": 73.8567,
        "arrivalTime": "2026-02-04T08:00:00",
        "departureTime": "2026-02-05T10:00:00"
      },
      {
        "city": "Mumbai",
        "latitude": 19.0760,
        "longitude": 72.8777,
        "arrivalTime": "2026-02-05T18:00:00",
        "departureTime": "2026-02-06T09:00:00"
      }
    ]
  }
]